"_primaryKey","_firstSeenAt","_lastSeenAt","venueId","name","slug","url","addressStreet","addressCity","addressState","addressCountry","addressPostalCode","timezone","latitude","longitude","capacity","score","popularity","metroCode"
"420444","2026-03-11 22:13:22.564","2026-03-11 22:13:22.564",420444,"Little Caesars Arena","little-caesars-arena","https://seatgeek.com/venues/little-caesars-arena/tickets","66 Sibley St","Detroit","MI","US","48201","America/Detroit",42.34,-83.0574,0,0.88,630919,505
"129","2026-03-11 22:13:22.564","2026-03-11 22:13:22.564",129,"Toyota Center","toyota-center","https://seatgeek.com/venues/toyota-center/tickets","1510 Polk Street","Houston","TX","US","77002","America/Chicago",29.7508,-95.3621,19300,0.89,755249,618
"256","2026-03-11 22:13:22.564","2026-03-11 22:13:22.564",256,"Moda Center","moda-center","https://seatgeek.com/venues/moda-center/tickets","1 Center Court","Portland","OR","US","97227","America/Los_Angeles",45.5316,-122.667,20630,0.86,248371,820
"208","2026-03-11 22:13:22.564","2026-03-11 22:13:22.564",208,"Paycom Center","paycom-center","https://seatgeek.com/venues/paycom-center/tickets","100 West Reno Avenue","Oklahoma City","OK","US","73102","America/Chicago",35.4634,-97.5151,0,0.87,509080,650
"91","2026-03-11 22:13:22.564","2026-03-11 22:13:22.564",91,"Scotiabank Arena","scotiabank-arena","https://seatgeek.com/venues/scotiabank-arena/tickets","40 Bay Street","Toronto","ON","Canada","M5J 2X2","America/Toronto",43.6435,-79.3791,19800,0.84,200638,0
"187","2026-03-11 22:13:22.564","2026-03-11 22:13:22.564",187,"Ball Arena","ball-arena","https://seatgeek.com/venues/ball-arena/tickets","1000 Chopper Circle","Denver","CO","US","80204","America/Denver",39.7487,-105.008,0,0.9,489189,751
"185","2026-03-11 22:13:22.564","2026-03-11 22:13:22.564",185,"Frost Bank Center","frost-bank-center","https://seatgeek.com/venues/frost-bank-center/tickets","1 AT&T Center Parkway","San Antonio","TX","US","78219","America/Chicago",29.4271,-98.4374,18797,0.87,472784,641
"1702","2026-03-11 22:13:22.564","2026-03-11 22:13:22.564",1702,"Deerfoot Inn and Casino","deerfoot-inn-and-casino","https://seatgeek.com/venues/deerfoot-inn-and-casino/tickets","35 Street SE","Calgary","AB","Canada","T2Z 3W4","America/Edmonton",50.9492,-113.983,0,0.47,55,0
"1544","2026-03-11 22:13:22.564","2026-03-11 22:13:22.564",1544,"TD Garden","td-garden","https://seatgeek.com/venues/td-garden/tickets","100 Legends Way","Boston","MA","US","02114","America/New_York",42.3653,-71.0618,19580,0.93,1115284,506
"134","2026-03-11 22:13:22.564","2026-03-11 22:13:22.564",134,"Crypto.com Arena","crypto-com-arena","https://seatgeek.com/venues/crypto-com-arena/tickets","1111 South Figueroa Street","Los Angeles","CA","US","90015","America/Los_Angeles",34.043,-118.267,20000,0.92,634227,803
"136","2026-03-11 22:13:07.250","2026-03-11 22:13:07.250",136,"United Center","united-center","https://seatgeek.com/venues/united-center/tickets","1901 West Madison Street","Chicago","IL","US","60612","America/Chicago",41.8806,-87.674,23500,0.91,1750974,602
"93","2026-03-11 22:13:07.250","2026-03-11 22:13:07.250",93,"Madison Square Garden","madison-square-garden","https://seatgeek.com/venues/madison-square-garden/tickets","4 Pennsylvania Plaza","New York","NY","US","10001","America/New_York",40.7509,-73.9943,20000,0.98,2802189,501
"127","2026-03-11 22:13:07.250","2026-03-11 22:13:07.250",127,"State Farm Arena","state-farm-arena-1","https://seatgeek.com/venues/state-farm-arena-1/tickets","1 Philips Drive","Atlanta","GA","US","30303","America/New_York",33.7566,-84.3969,0,0.89,453298,524
"1243","2026-03-11 22:13:07.250","2026-03-11 22:13:07.250",1243,"FedExForum","fedexforum","https://seatgeek.com/venues/fedexforum/tickets","191 Beale Street","Memphis","TN","US","38103","America/Chicago",35.1383,-90.0522,19000,0.8,110623,640
"435592","2026-03-11 22:13:07.250","2026-03-11 22:13:07.250",435592,"Fiserv Forum","fiserv-forum","https://seatgeek.com/venues/fiserv-forum/tickets","901 Vel R. Phillips Ave","Milwaukee","WI","US","53203","America/Chicago",43.0417,-87.9162,0,0.83,108298,617
"130","2026-03-11 22:13:07.250","2026-03-11 22:13:07.250",130,"Mortgage Matchup Center","mortgage-matchup-center","https://seatgeek.com/venues/mortgage-matchup-center/tickets","201 East Jefferson Street","Phoenix","AZ","US","85004","America/Phoenix",33.4458,-112.071,18422,0.9,449956,753
"117","2026-03-11 22:13:07.250","2026-03-11 22:13:07.250",117,"American Airlines Center","american-airlines-center","https://seatgeek.com/venues/american-airlines-center/tickets","2500 Victory Avenue","Dallas","TX","US","75219","America/Chicago",32.7904,-96.8103,18584,0.92,750987,623
"467029","2026-03-11 22:13:07.250","2026-03-11 22:13:07.250",467029,"Chase Center","chase-center","https://seatgeek.com/venues/chase-center/tickets","1 Warriors Way","San Francisco","CA","US","94158","America/Los_Angeles",37.768,-122.388,18064,0.89,260202,807
"135","2026-03-11 22:13:07.250","2026-03-11 22:13:07.250",135,"Target Center","target-center","https://seatgeek.com/venues/target-center/tickets","600 First Avenue North","Minneapolis","MN","US","55403","America/Chicago",44.9795,-93.2761,25500,0.84,206010,613
"112","2026-03-11 22:13:07.250","2026-03-11 22:13:07.250",112,"Spectrum Center - Charlotte","spectrum-center-charlotte","https://seatgeek.com/venues/spectrum-center-charlotte/tickets","333 East Trade Street","Charlotte","NC","US","28202","America/New_York",35.2248,-80.8403,18504,0.87,665985,517
"184","2026-03-11 22:13:07.250","2026-03-11 22:13:07.250",184,"Smoothie King Center","smoothie-king-center","https://seatgeek.com/venues/smoothie-king-center/tickets","1501 Dave Dixon Drive","New Orleans","LA","US","70113","America/Chicago",29.949,-90.0821,0,0.87,338539,622
"183","2026-03-11 22:13:07.250","2026-03-11 22:13:07.250",183,"Kaseya Center","kaseya-center","https://seatgeek.com/venues/kaseya-center/tickets","601 Biscayne Blvd","Miami","FL","US","33132","America/New_York",25.7812,-80.1879,20000,0.89,535926,528
"3148","2026-03-11 22:13:07.250","2026-03-11 22:13:07.250",3148,"Xfinity Mobile Arena","xfinity-mobile-arena","https://seatgeek.com/venues/xfinity-mobile-arena/tickets","3601 South Broad Street","Philadelphia","PA","US","19148","America/New_York",39.9012,-75.172,0,0.9,681253,504
"522233","2026-03-11 22:13:07.250","2026-03-11 22:13:07.250",522233,"Intuit Dome","intuit-dome","https://seatgeek.com/venues/intuit-dome/tickets","3930 West Century Blvd","Inglewood","CA","US","90303","America/Los_Angeles",33.9443,-118.343,0,0.87,340035,803
"7546","2026-03-11 22:13:07.250","2026-03-11 22:13:07.250",7546,"Barclays Center","barclays-center","https://seatgeek.com/venues/barclays-center/tickets","620 Atlantic Avenue","Brooklyn","NY","US","11217","America/New_York",40.6827,-73.9753,0,0.9,396465,501
"121","2026-03-11 22:13:07.250","2026-03-11 22:13:07.250",121,"Gainbridge Fieldhouse","gainbridge-fieldhouse","https://seatgeek.com/venues/gainbridge-fieldhouse/tickets","125 S. Pennsylvania St.","Indianapolis","IN","US","46204","America/Indiana/Indianapolis",39.764,-86.1556,18345,0.86,266497,527
"2652","2026-03-11 22:13:07.250","2026-03-11 22:13:07.250",2652,"Kia Center","kia-center","https://seatgeek.com/venues/kia-center/tickets","400 West Church Street","Orlando","FL","US","32805","America/New_York",28.5392,-81.3839,0,0.86,309042,534
"181","2026-03-11 22:13:07.250","2026-03-11 22:13:07.250",181,"Capital One Arena","capital-one-arena","https://seatgeek.com/venues/capital-one-arena/tickets","601 F Street Northwest","Washington","DC","US","20004","America/New_York",38.8981,-77.0209,20173,0.89,832936,511
"177304","2026-03-11 22:13:07.250","2026-03-11 22:13:07.250",177304,"Golden 1 Center","golden-1-center","https://seatgeek.com/venues/golden-1-center/tickets","500 David J Stern Walk","Sacramento","CA","US","95814","America/Los_Angeles",38.5161,-121.417,0,0.84,149431,862
"120","2026-03-11 22:13:07.250","2026-03-11 22:13:07.250",120,"Rocket Arena","rocket-arena","https://seatgeek.com/venues/rocket-arena/tickets","1 Center Court","Cleveland","OH","US","44115","America/New_York",41.4971,-81.6884,20562,0.96,1375183,510
"188","2026-03-11 22:13:07.250","2026-03-11 22:13:07.250",188,"Delta Center","delta-center-1","https://seatgeek.com/venues/delta-center-1/tickets","301 West South Temple","Salt Lake City","UT","US","84101","America/Denver",40.7676,-111.901,20000,0.95,888267,770
"519984","2026-03-11 22:12:40.742","2026-03-11 22:12:40.742",519984,"Team Member RSVP","team-member-rsvp","https://seatgeek.com/venues/team-member-rsvp/tickets","1 Center Court","Cleveland","OH","US",,"America/New_York",41.4965,-81.6881,0,0.5,2358,510
"2265","2026-03-11 22:11:51.732","2026-03-11 22:11:51.732",2265,"PPG Paints Arena","ppg-paints-arena","https://seatgeek.com/venues/ppg-paints-arena/tickets","1001 Fifth Avenue","Pittsburgh","PA","US","15219","America/New_York",40.4396,-79.9895,0,0.83,118984,508
"161601","2026-03-11 22:11:51.732","2026-03-11 22:11:51.732",161601,"T-Mobile Arena","t-mobile-arena","https://seatgeek.com/venues/t-mobile-arena/tickets","3780 Las Vegas Boulevard","Las Vegas","NV","US","89158","America/Los_Angeles",36.1029,-115.178,0,0.88,317256,839
"182","2026-03-11 22:11:51.732","2026-03-11 22:11:51.732",182,"Benchmark International Arena","benchmark-international-arena","https://seatgeek.com/venues/benchmark-international-arena/tickets","401 Channelside Drive","Tampa","FL","US","33602","America/New_York",27.9427,-82.4517,0,0.84,312112,539
"37832","2026-03-11 22:11:51.732","2026-03-11 22:11:51.732",37832,"Princess Auto Stadium","princess-auto-stadium","https://seatgeek.com/venues/princess-auto-stadium/tickets","1345 Waverley Steet","Winnipeg","MB","Canada","R3T 1Z2","America/Winnipeg",49.8077,-97.1431,0,0.61,184,0
"212","2026-03-11 22:11:51.732","2026-03-11 22:11:51.732",212,"KeyBank Center","keybank-center","https://seatgeek.com/venues/keybank-center/tickets","1 Seymour H. Knox III Plaza","Buffalo","NY","US","14203","America/New_York",42.8759,-78.8767,0,0.78,155462,514
"518722","2026-03-11 22:11:51.732","2026-03-11 22:11:51.732",518722,"UBS Arena","ubs-arena","https://seatgeek.com/venues/ubs-arena/tickets","2150 Hempstead Turnpike","Elmont","NY","US","11003","America/New_York",40.7095,-73.7204,0,0.83,191788,501
"133","2026-03-11 22:11:51.732","2026-03-11 22:11:51.732",133,"Honda Center","honda-center","https://seatgeek.com/venues/honda-center/tickets","2695 E Katella Ave","Anaheim","CA","US","92806","America/Los_Angeles",33.8078,-117.876,18900,0.81,90144,803
"75884","2026-03-11 22:11:30.226","2026-03-11 22:11:30.226",75884,"Rogers Place","rogers-place","https://seatgeek.com/venues/rogers-place/tickets","104 Avenue","Edmonton","AB","Canada","T5J 4Y9","America/Edmonton",53.547,-113.498,0,0.77,53196,0
"126","2026-03-11 22:11:23.550","2026-03-11 22:11:23.550",126,"Amerant Bank Arena","amerant-bank-arena","https://seatgeek.com/venues/amerant-bank-arena/tickets","1 Panther Parkway","Sunrise","FL","US","33323","America/New_York",26.1585,-80.3255,22457,0.96,1133412,528
"157","2026-03-11 22:11:23.550","2026-03-11 22:11:23.550",157,"SAP Center at San Jose","sap-center-at-san-jose","https://seatgeek.com/venues/sap-center-at-san-jose/tickets","525 West Santa Clara Street","San Jose","CA","US","95113","America/Los_Angeles",37.3322,-121.902,19190,0.8,124899,807
"186","2026-03-11 22:11:23.550","2026-03-11 22:11:23.550",186,"Enterprise Center","enterprise-center","https://seatgeek.com/venues/enterprise-center/tickets","1401 Clark Avenue","Saint Louis","MO","US","63103","America/Chicago",38.6268,-90.2026,22612,0.83,231183,609
"430","2026-03-11 22:11:23.550","2026-03-11 22:11:23.550",430,"Nationwide Arena","nationwide-arena","https://seatgeek.com/venues/nationwide-arena/tickets","200 West Nationwide Boulevard","Columbus","OH","US","43215","America/New_York",39.9694,-83.0064,19500,0.82,106067,535
"123","2026-03-11 22:11:23.550","2026-03-11 22:11:23.550",123,"Grand Casino Arena","grand-casino-arena","https://seatgeek.com/venues/grand-casino-arena/tickets","199 West Kellogg Boulevard","Saint Paul","MN","US","55102","America/Chicago",44.9448,-93.1011,0,0.82,172886,613
"2195","2026-03-11 22:11:23.550","2026-03-11 22:11:23.550",2195,"Bridgestone Arena","bridgestone-arena","https://seatgeek.com/venues/bridgestone-arena/tickets","501 Broadway","Nashville","TN","US","37203","America/Chicago",36.1591,-86.7785,0,0.88,988114,659
"96","2026-03-11 22:11:23.550","2026-03-11 22:11:23.550",96,"Scotiabank Saddledome","scotiabank-saddledome","https://seatgeek.com/venues/scotiabank-saddledome/tickets","555 Saddledome Rise SE","Calgary","AB","Canada","T2G 2W1","America/Edmonton",51.0382,-114.051,0,0.73,24463,0
"139","2026-03-11 22:11:23.550","2026-03-11 22:11:23.550",139,"Centre Bell","centre-bell","https://seatgeek.com/venues/centre-bell/tickets","1909 Avenue des Canadiens-de-Montreal","Montreal","QC","Canada","H3C 5L2","America/Toronto",45.496,-73.5693,21500,0.8,155040,0
"1430","2026-03-11 22:11:23.550","2026-03-11 22:11:23.550",1430,"Lenovo Center","lenovo-center","https://seatgeek.com/venues/lenovo-center/tickets","1400 Edwards Mill Road","Raleigh","NC","US","27607","America/New_York",35.8033,-78.7218,0,0.83,155937,560
"150","2026-03-11 22:11:23.550","2026-03-11 22:11:23.550",150,"Canadian Tire Centre","canadian-tire-centre","https://seatgeek.com/venues/canadian-tire-centre/tickets","1000 Paladium Drive","Kanata","ON","Canada","K2V 1A5","America/Toronto",45.2973,-75.9258,20500,0.72,36591,0
"98","2026-03-11 22:11:23.550","2026-03-11 22:11:23.550",98,"Canada Life Centre","canada-life-centre","https://seatgeek.com/venues/canada-life-centre/tickets","300 Portage Avenue","Winnipeg","MB","Canada","R3C 5S4","America/Winnipeg",49.8936,-97.1435,16345,0.69,18011,0
"176","2026-03-11 22:11:23.550","2026-03-11 22:11:23.550",176,"Climate Pledge Arena","climate-pledge-arena","https://seatgeek.com/venues/climate-pledge-arena/tickets","401 1st Ave.","Seattle","WA","US","98109","America/Los_Angeles",47.6221,-122.354,17459,0.87,312381,819
"1500","2026-03-11 22:11:23.550","2026-03-11 22:11:23.550",1500,"Prudential Center","prudential-center","https://seatgeek.com/venues/prudential-center/tickets","25 Lafayette Street","Newark","NJ","US","07102","America/New_York",40.7332,-74.1717,19500,0.86,245608,501
"2983","2026-03-11 22:11:23.550","2026-03-11 22:11:23.550",2983,"Rogers Arena","rogers-arena","https://seatgeek.com/venues/rogers-arena/tickets","800 Griffiths Way","Vancouver","BC","Canada","V6B 6G1","America/Vancouver",49.2782,-123.108,0,0.79,69125,0
"43","2026-03-11 22:10:25.685","2026-03-11 22:10:25.685",43,"State Farm Stadium","state-farm-stadium","https://seatgeek.com/venues/state-farm-stadium/tickets","1 Cardinals Dr","Glendale","AZ","US","85305","America/Phoenix",33.5276,-112.263,63400,0.97,421422,753
"2472","2026-03-11 22:10:25.685","2026-03-11 22:10:25.685",2472,"Tom Benson Hall of Fame Stadium","tom-benson-hall-of-fame-stadium","https://seatgeek.com/venues/tom-benson-hall-of-fame-stadium/tickets","1835 Harrison Ave Nw","Canton","OH","US","44708","America/New_York",40.8199,-81.398,0,0.7,5864,510
"35","2026-03-11 22:10:25.685","2026-03-11 22:10:25.685",35,"Northwest Stadium","northwest-stadium","https://seatgeek.com/venues/northwest-stadium/tickets","1600 Ring Rd","Landover","MD","US","20785","America/New_York",38.9076,-76.8645,0,0.96,1331457,511
"4965","2026-03-11 22:10:25.685","2026-03-11 22:10:25.685",4965,"AT&T Stadium","at-t-stadium","https://seatgeek.com/venues/at-t-stadium/tickets","1 AT&T Way","Arlington","TX","US","76011","America/Chicago",32.7482,-97.0922,80000,1,1406998,623
"1126","2026-03-11 22:10:25.685","2026-03-11 22:10:25.685",1126,"Nissan Stadium","nissan-stadium","https://seatgeek.com/venues/nissan-stadium/tickets","1 Titans Way","Nashville","TN","US","37213","America/Chicago",36.1661,-86.7721,0,0.98,898371,659
"17","2026-03-11 22:09:22.694","2026-03-11 22:09:22.694",17,"Rogers Centre","rogers-centre","https://seatgeek.com/venues/rogers-centre/tickets","1 Blue Jays Way","Toronto","ON","Canada","M5V 1J1","America/Toronto",43.6422,-79.3909,49539,0.94,356415,0
"6371","2026-03-11 22:09:22.694","2026-03-11 22:09:22.694",6371,"loanDepot park","loandepot-park","https://seatgeek.com/venues/loandepot-park/tickets","501 Marlins Way","Miami","FL","US","33125","America/New_York",25.7617,-80.1918,0,0.88,2039883,528
"8","2026-03-11 22:09:22.694","2026-03-11 22:09:22.694",8,"Yankee Stadium","yankee-stadium","https://seatgeek.com/venues/yankee-stadium/tickets","1 East 161st Street","Bronx","NY","US","10451","America/New_York",40.8296,-73.9262,52325,0.95,459218,501
"15","2026-03-11 22:09:22.694","2026-03-11 22:09:22.694",15,"American Family Field","american-family-field","https://seatgeek.com/venues/american-family-field/tickets","1 Brewers Way","Milwaukee","WI","US","53214","America/Chicago",43.0296,-87.9725,0,0.88,198617,617
"317","2026-03-11 22:09:22.694","2026-03-11 22:09:22.694",317,"Sutter Health Park","sutter-health-park","https://seatgeek.com/venues/sutter-health-park/tickets","400 Ballpark Drive","West Sacramento","CA","US","95691","America/Los_Angeles",38.5804,-121.514,0,0.85,81828,862
"3712","2026-03-11 22:09:22.694","2026-03-11 22:09:22.694",3712,"Target Field","target-field","https://seatgeek.com/venues/target-field/tickets","1 Twins Way","Minneapolis","MN","US","55403","America/Chicago",44.981700000000004,-93.2776,0,0.85,68181,613
"3713","2026-03-11 22:09:22.694","2026-03-11 22:09:22.694",3713,"Nationals Park","nationals-park","https://seatgeek.com/venues/nationals-park/tickets","1500 South Capitol Street Southeast","Washington","DC","US","20003","America/New_York",38.8719,-77.0093,0,0.9,274491,511
"3714","2026-03-11 22:09:22.694","2026-03-11 22:09:22.694",3714,"Kauffman Stadium","kauffman-stadium","https://seatgeek.com/venues/kauffman-stadium/tickets","1 Royal Way","Kansas City","MO","US","64129","America/Chicago",39.0515,-94.4803,0,0.86,121570,616
"3715","2026-03-11 22:09:22.694","2026-03-11 22:09:22.694",3715,"Rate Field","rate-field","https://seatgeek.com/venues/rate-field/tickets","333 West 35th Street","Chicago","IL","US","60616","America/Chicago",41.8299,-87.6338,0,0.86,77295,602
"24","2026-03-11 22:09:22.694","2026-03-11 22:09:22.694",24,"Petco Park","petco-park","https://seatgeek.com/venues/petco-park/tickets","100 Park Boulevard","San Diego","CA","US","92101","America/Los_Angeles",32.7076,-117.157,0,0.94,633686,825
"18","2026-03-11 22:09:22.694","2026-03-11 22:09:22.694",18,"Citizens Bank Park","citizens-bank-park","https://seatgeek.com/venues/citizens-bank-park/tickets","1 Citizens Bank Way","Philadelphia","PA","US","19148","America/New_York",39.9055,-75.1666,43647,0.97,802303,504
"22","2026-03-11 22:09:22.694","2026-03-11 22:09:22.694",22,"Oracle Park","oracle-park","https://seatgeek.com/venues/oracle-park/tickets","24 Willie Mays Plaza","San Francisco","CA","US","94107","America/Los_Angeles",37.7786,-122.389,0,0.92,674765,807
"12","2026-03-11 22:09:22.694","2026-03-11 22:09:22.694",12,"Comerica Park","comerica-park","https://seatgeek.com/venues/comerica-park/tickets","2100 Woodward Avenue","Detroit","MI","US","48201","America/Detroit",42.339,-83.0485,41782,0.89,209263,505
"13","2026-03-11 22:09:22.694","2026-03-11 22:09:22.694",13,"T-Mobile Park","t-mobile-park","https://seatgeek.com/venues/t-mobile-park/tickets","1250 First Avenue","Seattle","WA","US","98134","America/Los_Angeles",47.5914,-122.333,0,0.92,382599,819
"21","2026-03-11 22:09:22.694","2026-03-11 22:09:22.694",21,"Fenway Park","fenway-park","https://seatgeek.com/venues/fenway-park/tickets","4 Jersey St","Boston","MA","US","02215","America/New_York",42.3468,-71.0969,37400,0.97,895052,506
"3","2026-03-11 22:09:09.893","2026-03-11 22:09:09.893",3,"Citi Field","citi-field","https://seatgeek.com/venues/citi-field/tickets","41 Seaver Way","Flushing","NY","US","11368","America/New_York",40.7577,-73.8456,0,0.94,487306,501
"10","2026-03-11 22:09:09.893","2026-03-11 22:09:09.893",10,"PNC Park","pnc-park","https://seatgeek.com/venues/pnc-park/tickets","115 Federal Street","Pittsburgh","PA","US","15212","America/New_York",40.4472,-80.0064,0,0.87,161188,508
"11","2026-03-11 22:09:09.893","2026-03-11 22:09:09.893",11,"Wrigley Field","wrigley-field","https://seatgeek.com/venues/wrigley-field/tickets","1060 West Addison Street","Chicago","IL","US","60613","America/Chicago",41.9475,-87.6562,41118,0.96,596067,602
"20","2026-03-11 22:09:09.893","2026-03-11 22:09:09.893",20,"Daikin Park","daikin-park","https://seatgeek.com/venues/daikin-park/tickets","501 Crawford Street","Houston","TX","US","77002","America/Chicago",29.7562,-95.3557,40950,0.92,782183,618
"25","2026-03-11 22:09:09.893","2026-03-11 22:09:09.893",25,"Oriole Park at Camden Yards","oriole-park-at-camden-yards","https://seatgeek.com/venues/oriole-park-at-camden-yards/tickets","333 West Camden Street","Baltimore","MD","US","21201","America/New_York",39.2841,-76.6203,0,0.91,501394,512
"26","2026-03-11 22:09:09.893","2026-03-11 22:09:09.893",26,"Great American Ball Park","great-american-ball-park","https://seatgeek.com/venues/great-american-ball-park/tickets","100 Joe Nuxhall Way","Cincinnati","OH","US","45202","America/New_York",39.0974,-84.5071,0,0.89,433058,515
"27","2026-03-11 22:09:09.893","2026-03-11 22:09:09.893",27,"Busch Stadium","busch-stadium","https://seatgeek.com/venues/busch-stadium/tickets","700 Clark Avenue","St. Louis","MO","US","63102","America/Chicago",38.6226,-90.1928,0,0.88,260377,609
"7","2026-03-11 22:09:09.893","2026-03-11 22:09:09.893",7,"Coors Field","coors-field","https://seatgeek.com/venues/coors-field/tickets","2001 Blake Street","Denver","CO","US","80205","America/Denver",39.7557,-104.994,0,0.88,181592,751
"28","2026-03-11 22:09:09.893","2026-03-11 22:09:09.893",28,"Angel Stadium","angel-stadium","https://seatgeek.com/venues/angel-stadium/tickets","2000 East Gene Autry Way","Anaheim","CA","US","92806","America/Los_Angeles",33.8003,-117.883,45060,0.88,206890,803
"6","2026-03-11 22:09:09.893","2026-03-11 22:09:09.893",6,"Progressive Field","progressive-field","https://seatgeek.com/venues/progressive-field/tickets","2401 Ontario Street","Cleveland","OH","US","44115","America/New_York",41.497,-81.6842,0,0.89,139049,510
"4","2026-03-11 22:09:09.893","2026-03-11 22:09:09.893",4,"Tropicana Field","tropicana-field","https://seatgeek.com/venues/tropicana-field/tickets","1 Tropicana Drive","Saint Petersburg","FL","US","33705","America/New_York",27.7682,-82.6534,36048,0.85,124147,539
"30","2026-03-11 22:09:09.893","2026-03-11 22:09:09.893",30,"Chase Field","chase-field","https://seatgeek.com/venues/chase-field/tickets","401 E Jefferson St","Phoenix","AZ","US","85004","America/Phoenix",33.4453,-112.067,0,0.92,351642,753
"418889","2026-03-11 22:09:09.893","2026-03-11 22:09:09.893",418889,"Truist Park","truist-park","https://seatgeek.com/venues/truist-park/tickets","755 Battery Ave SE","Atlanta","GA","US","30339","America/New_York",33.8899,-84.4686,41149,0.95,571322,524
"487468","2026-03-11 22:09:09.893","2026-03-11 22:09:09.893",487468,"Globe Life Field","globe-life-field","https://seatgeek.com/venues/globe-life-field/tickets","734 Stadium Drive","Arlington","TX","US","76011","America/Chicago",32.7472,-97.0838,0,0.94,693173,623
"1","2026-03-11 22:09:09.893","2026-03-11 22:09:09.893",1,"Dodger Stadium","dodger-stadium","https://seatgeek.com/venues/dodger-stadium/tickets","1000 Elysian Park Avenue","Los Angeles","CA","US","90012","America/Los_Angeles",34.0718,-118.246,56000,0.99,1407099,803
"458949","2026-03-11 22:04:55.634","2026-03-11 22:04:55.634",458949,"Las Vegas Ballpark","las-vegas-ballpark","https://seatgeek.com/venues/las-vegas-ballpark/tickets","1650 South Pavilion Center Drive","Las Vegas","NV","US","89135","America/Los_Angeles",36.1528,-115.33,0,0.69,4329,839
"462490","2026-03-11 22:01:39.198","2026-03-11 22:01:39.198",462490,"CoolToday Park","cooltoday-park","https://seatgeek.com/venues/cooltoday-park/tickets","19503 West Villages Parkway","Venice","FL","US","34293","America/New_York",27.0322,-82.32,0,0.67,66871,539
"3929","2026-03-11 22:01:39.198","2026-03-11 22:01:39.198",3929,"Publix Field at Joker Marchant Stadium","publix-field-at-joker-marchant-stadium","https://seatgeek.com/venues/publix-field-at-joker-marchant-stadium/tickets","2301 Lakeland Hills Blvd.","Lakeland","FL","US","33804","America/New_York",28.0745,-81.951,0,0.67,52253,539
"3927","2026-03-11 22:01:39.198","2026-03-11 22:01:39.198",3927,"Roger Dean Stadium","roger-dean-stadium","https://seatgeek.com/venues/roger-dean-stadium/tickets","4751 Main Street","Jupiter","FL","US","33468","America/New_York",26.891,-80.1163,0,0.68,56523,548
"3930","2026-03-11 22:01:39.198","2026-03-11 22:01:39.198",3930,"Surprise Stadium","surprise-stadium","https://seatgeek.com/venues/surprise-stadium/tickets","15754 North Bullard","Surprise","AZ","US","85374","America/Phoenix",33.6269,-112.377,0,0.68,57080,753
"3931","2026-03-11 22:01:39.198","2026-03-11 22:01:39.198",3931,"Salt River Fields at Talking Stick","salt-river-fields-at-talking-stick","https://seatgeek.com/venues/salt-river-fields-at-talking-stick/tickets","7555 North Pima Road","Scottsdale","AZ","US","85258","America/Phoenix",33.5457,-111.886,0,0.74,164073,753
"3926","2026-03-11 22:01:39.198","2026-03-11 22:01:39.198",3926,"Clover Park - Port St. Lucie","clover-park-port-st-lucie","https://seatgeek.com/venues/clover-park-port-st-lucie/tickets","525 NW Peacock Blvd","Port St. Lucie","FL","US","34986","America/New_York",27.3286,-80.4062,7160,0.71,66401,548
"419759","2026-03-11 22:01:39.198","2026-03-11 22:01:39.198",419759,"CACTI Park of the Palm Beaches","cacti-park-of-the-palm-beaches","https://seatgeek.com/venues/cacti-park-of-the-palm-beaches/tickets","5444 Haverhill Rd","West Palm Beach","FL","US","33407","America/New_York",26.7579,-80.1169,0,0.67,42601,548
"3925","2026-03-11 22:01:39.198","2026-03-11 22:01:39.198",3925,"Scottsdale Stadium","scottsdale-stadium","https://seatgeek.com/venues/scottsdale-stadium/tickets","7408 East Osborn Road","Scottsdale","AZ","US","85251","America/Phoenix",33.4893,-111.921,0,0.74,155079,753
"3924","2026-03-11 22:01:39.198","2026-03-11 22:01:39.198",3924,"Peoria Sports Complex","peoria-sports-complex","https://seatgeek.com/venues/peoria-sports-complex/tickets","16101 North 83rd Avenue","Peoria","AZ","US","85382","America/Phoenix",33.6321,-112.233,0,0.73,152093,753
"3923","2026-03-11 22:01:39.198","2026-03-11 22:01:39.198",3923,"Ed Smith Stadium","ed-smith-stadium","https://seatgeek.com/venues/ed-smith-stadium/tickets","2700 12th St.","Sarasota","FL","US","34237","America/New_York",27.3482,-82.5176,0,0.68,76493,539
"40909","2026-03-11 22:01:39.198","2026-03-11 22:01:39.198",40909,"American Family Fields of Phoenix","american-family-fields-of-phoenix","https://seatgeek.com/venues/american-family-fields-of-phoenix/tickets","3600 N 51st Ave.","Phoenix","AZ","US","85031","America/Phoenix",33.4907,-112.172,0,0.64,22114,753
"5260","2026-03-11 22:01:39.198","2026-03-11 22:01:39.198",5260,"Hammons Field","hammons-field","https://seatgeek.com/venues/hammons-field/tickets","955 East Trafficway","Springfield","MO","US","65802","America/Chicago",37.2108,-93.28,0,0.55,2525,619
"57343","2026-03-11 22:01:39.198","2026-03-11 22:01:39.198",57343,"Sloan Park","sloan-park","https://seatgeek.com/venues/sloan-park/tickets","2330 W. Rio Salado Parkway .","Mesa","AZ","US","85201","America/Phoenix",33.4311,-111.882,0,0.77,309705,753
"395","2026-03-11 22:01:39.198","2026-03-11 22:01:39.198",395,"Camelback Ranch","camelback-ranch","https://seatgeek.com/venues/camelback-ranch/tickets","10710 West Camelback Rd.","Phoenix","AZ","US","85037","America/Phoenix",33.5132,-112.295,0,0.76,240959,753
"3944","2026-03-11 22:01:39.198","2026-03-11 22:01:39.198",3944,"Hammond Stadium","hammond-stadium","https://seatgeek.com/venues/hammond-stadium/tickets","14100 6 Mile Cypress Pkwy","Fort Myers","FL","US","33912","America/New_York",26.538,-81.8413,9300,0.66,29858,571
"6992","2026-03-11 22:01:39.198","2026-03-11 22:01:39.198",6992,"JetBlue Park","jetblue-park","https://seatgeek.com/venues/jetblue-park/tickets","11581 Daniels Parkway","Fort Myers","FL","US","33913","America/New_York",26.5487,-81.7612,0,0.72,92811,571
"3943","2026-03-11 22:01:39.198","2026-03-11 22:01:39.198",3943,"Goodyear Ballpark","goodyear-ballpark","https://seatgeek.com/venues/goodyear-ballpark/tickets","1933 South Ballpark Way","Goodyear","AZ","US","85338","America/Phoenix",33.4285,-112.39,0,0.67,39009,753
"3942","2026-03-11 22:01:39.198","2026-03-11 22:01:39.198",3942,"BayCare Ballpark","baycare-ballpark","https://seatgeek.com/venues/baycare-ballpark/tickets","601 N. Old Coachman Road","Clearwater","FL","US","33757","America/New_York",27.9709,-82.7317,0,0.74,193176,539
"3941","2026-03-11 22:01:39.198","2026-03-11 22:01:39.198",3941,"LECOM Park","lecom-park","https://seatgeek.com/venues/lecom-park/tickets","1611 9th St. West","Bradenton","FL","US","34205","America/New_York",27.4846,-82.5713,0,0.66,46601,539
"3939","2026-03-11 22:01:39.198","2026-03-11 22:01:39.198",3939,"Tempe Diablo Stadium","tempe-diablo-stadium","https://seatgeek.com/venues/tempe-diablo-stadium/tickets","2200 W Alameda Dr","Tempe","AZ","US","85282","America/Phoenix",33.4009,-111.97,0,0.68,40997,753
"3937","2026-03-11 22:01:39.198","2026-03-11 22:01:39.198",3937,"George M. Steinbrenner Field","george-m-steinbrenner-field","https://seatgeek.com/venues/george-m-steinbrenner-field/tickets","1 Steinbrenner Drive","Tampa","FL","US","33614","America/New_York",27.9798,-82.5072,0,0.79,189689,539
"3936","2026-03-11 22:01:39.198","2026-03-11 22:01:39.198",3936,"TD Ballpark","td-ballpark","https://seatgeek.com/venues/td-ballpark/tickets","373 Douglas Ave.","Dunedin","FL","US","34698","America/New_York",28.0036,-82.7868,0,0.68,46029,539
"3933","2026-03-11 22:01:39.198","2026-03-11 22:01:39.198",3933,"Hohokam Park","hohokam-park","https://seatgeek.com/venues/hohokam-park/tickets","1235 N. Center Street","Mesa","AZ","US","85201","America/Phoenix",33.4386,-111.83,0,0.65,23981,753
"3932","2026-03-11 22:01:39.198","2026-03-11 22:01:39.198",3932,"Charlotte Sports Park","charlotte-sports-park","https://seatgeek.com/venues/charlotte-sports-park/tickets","2300 El Jobean Road","Port Charlotte","FL","US","33948","America/New_York",26.9985,-82.1828,0,0.61,15588,571
"1121","2026-02-26 22:11:41.564","2026-02-26 22:11:41.564",1121,"M&T Bank Stadium","m-t-bank-stadium","https://seatgeek.com/venues/m-t-bank-stadium/tickets","1101 Russell Street","Baltimore","MD","US","21230","America/New_York",39.2779,-76.6229,71008,0.92,293251,512
"418739","2026-02-26 22:11:41.564","2026-02-26 22:11:41.564",418739,"Ford Center","ford-center-3","https://seatgeek.com/venues/ford-center-3/tickets","9 Cowboys Way","Frisco","TX","US","75034","America/Chicago",33.1095,-96.8272,0,0.83,10881,623
"518721","2026-02-21 22:20:12.225","2026-02-21 22:20:12.225",518721,"Moody Center ATX","moody-center-atx","https://seatgeek.com/venues/moody-center-atx/tickets","2001 Robert Dedman Drive","Austin","TX","US","78712","America/Chicago",30.2805,-97.7318,0,0.89,808145,635
"191","2026-02-13 22:16:30.785","2026-02-13 22:16:30.785",191,"Kia Forum","kia-forum","https://seatgeek.com/venues/kia-forum/tickets","3900 W Manchester Blvd.","Inglewood","CA","US","90305","America/Los_Angeles",33.9582,-118.342,18000,0.87,400943,803
"58670","2026-02-08 22:11:26.070","2026-02-08 22:11:26.070",58670,"Levi's Stadium","levi-s-stadium","https://seatgeek.com/venues/levi-s-stadium/tickets","4900 Marie P DeBartolo Way","Santa Clara","CA","US","95054","America/Los_Angeles",37.4023,-121.969,68500,0.92,6153319,807
"39","2026-01-30 22:16:57.478","2026-01-30 22:16:57.478",39,"Raymond James Stadium","raymond-james-stadium","https://seatgeek.com/venues/raymond-james-stadium/tickets","4201 North Dale Mabry Highway","Tampa","FL","US","33607","America/New_York",27.9759,-82.5033,0,0.9,850402,539
"339","2026-01-25 22:15:07.315","2026-01-25 22:15:07.315",339,"Lumen Field","lumen-field","https://seatgeek.com/venues/lumen-field/tickets","800 Occidental Ave S","Seattle","WA","US","98134","America/Los_Angeles",47.5948,-122.332,0,0.88,424493,819
"1131","2026-01-24 22:08:53.837","2026-01-24 22:08:53.837",1131,"Empower Field at Mile High","empower-field-at-mile-high","https://seatgeek.com/venues/empower-field-at-mile-high/tickets","1701 Bryant Street","Denver","CO","US","80204","America/Denver",39.7439,-105.02,76125,0.87,483605,751
"31","2026-01-18 22:07:53.295","2026-01-18 22:07:53.295",31,"Soldier Field","soldier-field","https://seatgeek.com/venues/soldier-field/tickets","1410 S. Museum Campus Drive","Chicago","IL","US","60605","America/Chicago",41.8623,-87.6159,61500,0.9,760721,602
"33","2026-01-17 22:08:36.124","2026-01-17 22:08:36.124",33,"Gillette Stadium","gillette-stadium","https://seatgeek.com/venues/gillette-stadium/tickets","1 Patriot Place","Foxborough","MA","US","02035","America/New_York",42.0906,-71.2674,68756,0.9,469998,506
"41","2026-01-17 22:08:36.124","2026-01-17 22:08:36.124",41,"NRG Stadium","nrg-stadium","https://seatgeek.com/venues/nrg-stadium/tickets","1 Reliant Park","Houston","TX","US","77054","America/Chicago",29.6849,-95.4107,0,0.91,556557,618
"487036","2026-01-17 22:08:36.124","2026-01-17 22:08:36.124",487036,"SoFi Stadium","sofi-stadium","https://seatgeek.com/venues/sofi-stadium/tickets","3883 West Century Boulevard","Inglewood","CA","US","90301","America/Los_Angeles",33.9535,-118.339,72240,0.93,356722,803
"1119","2026-01-12 22:11:27.089","2026-01-12 22:11:27.089",1119,"Acrisure Stadium","acrisure-stadium","https://seatgeek.com/venues/acrisure-stadium/tickets","100 Art Rooney Avenue","Pittsburgh","PA","US","15212","America/New_York",40.4468,-80.0158,0,0.87,251003,508
"1135","2026-01-11 22:22:36.245","2026-01-11 22:22:36.245",1135,"Highmark Stadium - NY","highmark-stadium-ny","https://seatgeek.com/venues/highmark-stadium-ny/tickets","1 Bills Drive","Orchard Park","NY","US","14127","America/New_York",42.7737,-78.7874,0,0.84,9362,514
"330","2026-01-11 22:22:36.245","2026-01-11 22:22:36.245",330,"Lincoln Financial Field","lincoln-financial-field","https://seatgeek.com/venues/lincoln-financial-field/tickets","1020 Pattison Ave","Philadelphia","PA","US","19148","America/New_York",39.9008,-75.1675,68532,0.92,591455,504
"1122","2026-01-10 22:08:08.242","2026-01-10 22:08:08.242",1122,"Bank of America Stadium","bank-of-america-stadium","https://seatgeek.com/venues/bank-of-america-stadium/tickets","800 South Mint Street","Charlotte","NC","US","28202","America/New_York",35.2258,-80.8528,0,0.86,277035,517
"5178","2026-01-10 22:08:08.242","2026-01-10 22:08:08.242",5178,"EverBank Stadium","everbank-stadium","https://seatgeek.com/venues/everbank-stadium/tickets","1 TIAA Bank Field Drive","Jacksonville","FL","US","32202","America/New_York",30.324,-81.6373,0,0.81,276934,561
"514837","2026-01-04 22:08:53.442","2026-01-04 22:08:53.442",514837,"Allegiant Stadium","allegiant-stadium","https://seatgeek.com/venues/allegiant-stadium/tickets","3333 Al Davis Way","Las Vegas","NV","US","89118","America/Los_Angeles",36.0909,-115.183,0,0.91,302473,839
"1124","2026-01-03 22:07:57.171","2026-01-03 22:07:57.171",1124,"Paycor Stadium","paycor-stadium","https://seatgeek.com/venues/paycor-stadium/tickets","1 Paul Brown Stadium","Cincinnati","OH","US","45202","America/New_York",39.0961,-84.5177,0,0.81,43387,515
"1587","2026-01-03 22:07:57.171","2026-01-03 22:07:57.171",1587,"MetLife Stadium","metlife-stadium","https://seatgeek.com/venues/metlife-stadium/tickets","1 MetLife Stadium Drive","East Rutherford","NJ","US","07073","America/New_York",40.8142,-74.0737,82500,0.93,221937,501
"1609391","2026-01-03 22:07:57.171","2026-01-03 22:07:57.171",1609391,"Tailgreeter Chicago Lot","tailgreeter-chicago-lot","https://seatgeek.com/venues/tailgreeter-chicago-lot/tickets",,"Chicago","IL","US","60007","America/Chicago",41.8833,-87.6324,0,0.33,3,602
"1609392","2026-01-03 22:07:57.171","2026-01-03 22:07:57.171",1609392,"Tailgreeter Denver Tailgate Lot","tailgreeter-denver-tailgate-lot","https://seatgeek.com/venues/tailgreeter-denver-tailgate-lot/tickets",,"Denver","CO","US","80204","America/Denver",39.7392,-104.99,0,0.43,488,751
"1609395","2026-01-03 22:07:57.171","2026-01-03 22:07:57.171",1609395,"The Armory Parking Lot","the-armory-parking-lot","https://seatgeek.com/venues/the-armory-parking-lot/tickets","535 5th Ave S","Minneapolis","MN","US","55415","America/Chicago",44.9754,-93.264,0,0.28,73,0
"1609401","2026-01-03 22:07:57.171","2026-01-03 22:07:57.171",1609401,"Tailgreeter Pittsburgh Lot","tailgreeter-pittsburgh-lot","https://seatgeek.com/venues/tailgreeter-pittsburgh-lot/tickets",,"Pittsburgh","PA","US","15222","America/New_York",40.4387,-79.9972,0,0.28,101,508
"218451","2026-01-03 22:07:57.171","2026-01-03 22:07:57.171",218451,"U.S. Bank Stadium","u-s-bank-stadium","https://seatgeek.com/venues/u-s-bank-stadium/tickets","401 Chicago Avenue","Minneapolis","MN","US","55415","America/Chicago",44.9751,-93.2582,0,0.86,148929,613
"419590","2026-01-03 22:07:57.171","2026-01-03 22:07:57.171",419590,"Mercedes-Benz Stadium","mercedes-benz-stadium","https://seatgeek.com/venues/mercedes-benz-stadium/tickets","1 Mercedes-Benz Stadium SW","Atlanta","GA","US","30313","America/New_York",33.7553,-84.4006,83000,0.92,1871256,524
"1609403","2025-12-29 22:08:33.465","2025-12-29 22:08:33.465",1609403,"Tailgreeter Tampa Tailgate Lot","tailgreeter-tampa-tailgate-lot","https://seatgeek.com/venues/tailgreeter-tampa-tailgate-lot/tickets",,"Tampa","FL","US","33607","America/New_York",27.9772,-82.4971,0,0.42,550,539
"1125","2025-12-27 22:07:53.380","2025-12-27 22:07:53.380",1125,"Lambeau Field","lambeau-field","https://seatgeek.com/venues/lambeau-field/tickets","1265 Lombardi Avenue","Green Bay","WI","US","54304","America/Chicago",44.5013,-88.0622,0,0.83,68669,658
"1130","2025-12-27 22:07:53.380","2025-12-27 22:07:53.380",1130,"Lucas Oil Stadium","lucas-oil-stadium","https://seatgeek.com/venues/lucas-oil-stadium/tickets","500 South Capitol Avenue","Indianapolis","IN","US","46225","America/Indiana/Indianapolis",39.7601,-86.1639,0,0.89,173165,527
"1123","2025-12-27 22:07:36.154","2025-12-27 22:07:36.154",1123,"Huntington Bank Field","huntington-bank-field","https://seatgeek.com/venues/huntington-bank-field/tickets","100 Alfred Lerner Way","Cleveland","OH","US","44114","America/New_York",41.5065,-81.7,0,0.86,150734,510
"1609404","2025-12-27 22:07:36.154","2025-12-27 22:07:36.154",1609404,"Tailgreeter Nissan Stadium Field","tailgreeter-nissan-stadium-field","https://seatgeek.com/venues/tailgreeter-nissan-stadium-field/tickets",,"Nashville","TN","US",,"America/Chicago",36.1627,-86.7816,0,0.42,240,659
"29","2025-12-27 22:07:36.154","2025-12-27 22:07:36.154",29,"Hard Rock Stadium","hard-rock-stadium","https://seatgeek.com/venues/hard-rock-stadium/tickets","347 Don Shula Drive","Miami Gardens","FL","US","33056","America/New_York",25.9579,-80.2389,38650,0.92,766089,528
"1609393","2025-12-26 22:07:50.154","2025-12-26 22:07:50.154",1609393,"The Bar Holmgren","the-bar-holmgren","https://seatgeek.com/venues/the-bar-holmgren/tickets","2001 Holmgren Wy","Green Bay","WI","US","54304","America/Chicago",44.4963,-88.0531,0,0.41,4,658
"346","2025-12-25 22:07:16.754","2025-12-25 22:07:16.754",346,"Ford Field","ford-field","https://seatgeek.com/venues/ford-field/tickets","2000 Brush Street","Detroit","MI","US","48226","America/Detroit",42.34,-83.0456,80103,0.85,33878,505
"1128","2025-12-25 22:07:10.327","2025-12-25 22:07:10.327",1128,"GEHA Field at Arrowhead Stadium","geha-field-at-arrowhead-stadium","https://seatgeek.com/venues/geha-field-at-arrowhead-stadium/tickets","1 Arrowhead Drive","Kansas City","MO","US","64129","America/Chicago",39.0489,-94.4839,79451,0.9,216996,616
"1609405","2025-12-24 22:06:47.699","2025-12-24 22:06:47.699",1609405,"Sugar Rim Bar Lot","sugar-rim-bar-lot","https://seatgeek.com/venues/sugar-rim-bar-lot/tickets","8511 Landover Road","Hyattsville","MD","US","20785","America/New_York",38.9171,-76.8587,0,0.4,28,511
"128","2025-12-20 22:09:58.080","2025-12-20 22:09:58.080",128,"Caesars Superdome","caesars-superdome","https://seatgeek.com/venues/caesars-superdome/tickets","1500 Sugar Bowl Dr","New Orleans","LA","US","70112","America/Chicago",29.9511,-90.0812,73208,0.91,679259,622
"1609400","2025-12-20 22:09:58.080","2025-12-20 22:09:58.080",1609400,"Tailgreeter New Orleans Tailgate Lot","tailgreeter-new-orleans-tailgate-lot","https://seatgeek.com/venues/tailgreeter-new-orleans-tailgate-lot/tickets",,"New Orleans","LA","US","70130","America/Chicago",29.9509,-90.0758,0,0.39,2,622
"1609402","2025-12-18 22:09:02.002","2025-12-18 22:09:02.002",1609402,"The Press Box - Seattle","the-press-box-seattle","https://seatgeek.com/venues/the-press-box-seattle/tickets","1518 1st Ave S Suite 100","Seattle","WA","US","98134","America/Los_Angeles",47.5896,-122.334,0,0.31,24,819
"1609399","2025-12-16 22:08:36.104","2025-12-16 22:08:36.104",1609399,"Ten10 Events","ten10-events","https://seatgeek.com/venues/ten10-events/tickets","1010 N Collins St","Arlington","TX","US","76011","America/Chicago",32.7509,-97.0988,0,0.44,262,623
"1609394","2025-12-11 22:12:49.735","2025-12-11 22:12:49.735",1609394,"Tailgreeter KC Lot","tailgreeter-kc-lot","https://seatgeek.com/venues/tailgreeter-kc-lot/tickets",,"Kansas City","MO","US","64101","America/Chicago",39.0997,-94.5786,0,0.37,31,616
"1609398","2025-12-05 22:16:52.402","2025-12-05 22:16:52.402",1609398,"Carousel Arcade and Watch Bar","carousel-arcade-and-watch-bar","https://seatgeek.com/venues/carousel-arcade-and-watch-bar/tickets","6770 N Sunrise Blvd g111","Glendale","AZ","US","85305","America/Phoenix",33.5335,-112.261,0,0.39,317,753
"6913","2025-11-08 22:09:51.746","2025-11-08 22:09:51.746",6913,"Olympiastadion Berlin","olympiastadion-berlin","https://seatgeek.com/venues/olympiastadion-berlin/tickets","Olympischer Platz 3","Berlin",,"Germany","14053","Europe/Berlin",52.5147,13.2395,0,0.58,11423,0
"4760","2025-10-18 22:06:58.962","2025-10-18 22:06:58.962",4760,"Wembley Stadium","wembley-stadium","https://seatgeek.com/venues/wembley-stadium/tickets","Wembley","London",,"UK","HA9 0WS","Europe/London",51.556,-0.279618,90000,0.58,10520,0
"4318","2025-10-15 22:10:11.037","2025-10-15 22:10:11.037",4318,"First Horizon Coliseum","first-horizon-coliseum","https://seatgeek.com/venues/first-horizon-coliseum/tickets","1921 West Lee Street","Greensboro","NC","US","27403","America/New_York",36.058,-79.8248,23500,0.75,35806,518
"115","2025-10-14 22:11:09.153","2025-10-14 22:11:09.153",115,"Legacy Arena at The BJCC","legacy-arena-at-the-bjcc","https://seatgeek.com/venues/legacy-arena-at-the-bjcc/tickets","1898 9th Ave N","Birmingham","AL","US","35203","America/Chicago",33.5233,-86.8127,17500,0.75,48704,630
"439703","2025-10-11 22:07:45.399","2025-10-11 22:07:45.399",439703,"Tottenham Hotspur New Stadium","tottenham-hotspur-new-stadium","https://seatgeek.com/venues/tottenham-hotspur-new-stadium/tickets","782 High Road","London",,"UK","N17 0BX","Europe/London",51.6047,-0.0678374,0,0.65,24524,0
